[
    {
        "name" : "SHABBY DIELE SCANDI LIVING",
        "contact" : "test@example.org",
        "description" : "Wein, Whisky, Gin, Rum und Craft Beer. Soli Gutscheine gegen die Corona Krise Soli Gutscheine gegen die Corona Krise",
        "email":"info@die-genussverstaerker.de",
        "image" : "cafe.jpg",
        "street": "Musterstraße 24",
        "city" : "Frankfurt",
        "categories" : ["kleidung"],
        "geolocation": {"lat":"40.409264", "lng":"49.867092"}
    },
    {
        "name" : "Die Genussverstärker",
        "contact" : "https://www.die-genussverstaerker.de/support-your-local-dealer-soli-gutscheine-gegen-die-corona-krise/",
        "email":"info@die-genussverstaerker.de",
        "description" : "Wein, Whisky, Gin, Rum und Craft Beer. Soli Gutscheine gegen die Corona Krise",
        "image" : "bar.jpg",
        "street": "Bernardtstraße 63a",
        "city" : "Offenbach",
        "categories" : ["alkohol","shop","getränke"],
        "geolocation": {"lat":"40.409264", "lng":"49.867092"}
    },
    {
        "name" : "Essensplatz 3",
        "contact" : "test@example.org",
        "description" : "Wein, Whisky, Gin, Rum und Craft Beer. Soli Gutscheine gegen die Corona Krise",
        "image" : "cloth.jpg",
        "street": "Musterstraße 24",
        "city" : "Frankfurt",
        "categories" : ["restaurant","cafe"],
        "geolocation": {"lat":"40.409264", "lng":"49.867092"}
    },
    {
        "name" : "Essensplatz 4",
        "contact" : "test@example.org",
        "description" : "Examplerestaurant",
        "image" : "bar.jpg",
        "street": "Musterstraße 24",
        "city" : "Frankfurt",
        "categories" : ["restaurant","cafe"],
        "geolocation": {"lat":"40.409264", "lng":"49.867092"}
    },
    {
        "name" : "Essensplatz 5",
        "contact" : "test@example.org",
        "description" : "Examplerestaurant",
        "image" : "bar.jpg",
        "street": "Musterstraße 24",
        "city" : "Frankfurt",
        "categories" : ["restaurant","cafe"],
        "geolocation": {"lat":"40.409264", "lng":"49.867092"}
    },
    {
        "name" : "Essensplatz 6",
        "contact" : "test@example.org",
        "description" : "Examplerestaurant",
        "image" : "bar.jpg",
        "street": "Musterstraße 24",
        "city" : "Frankfurt",
        "categories" : ["restaurant","cafe"],
        "geolocation": {"lat":"40.409264", "lng":"49.867092"}
    },
    {
        "name" : "Essensplatz 7",
        "contact" : "test@example.org",
        "description" : "Examplerestaurant",
        "image" : "bar.jpg",
        "street": "Musterstraße 24",
        "city" : "Frankfurt",
        "categories" : ["restaurant","cafe"],
        "geolocation": {"lat":"40.409264", "lng":"49.867092"}
    }
]
